$GPRMC,062418.358,A,3708.930,N,00832.499,W,002.1,016.4,101117,003.1,E*73
$GPGGA,062419.358,3708.930,N,00832.499,W,1,04,15.0,10.0,M,1.0,M,,*73
$GPGLL,3708.930,N,00832.499,W,062420.358,A*21
$GPGSA,A,3,01,02,03,04,,,,,,,,,18.0,15.0,10.0*0A
$GPRMC,062422.358,A,3708.930,N,00832.499,W,002.1,018.8,101117,003.1,E*78
$GPGGA,062423.358,3708.930,N,00832.499,W,1,04,15.0,10.0,M,1.0,M,,*7A
$GPGLL,3708.930,N,00832.499,W,062424.358,A*25
$GPGSA,A,3,01,02,03,04,,,,,,,,,18.1,15.0,10.0*0B
$GPRMC,062426.358,A,3708.930,N,00832.499,W,002.2,014.3,101117,003.1,E*78
$GPGGA,062427.358,3708.930,N,00832.499,W,1,04,15.0,10.0,M,1.0,M,,*7E
$GPGLL,3708.930,N,00832.499,W,062428.358,A*29
$GPGSA,A,3,01,02,03,04,,,,,,,,,18.1,15.0,10.1*0A
$GPRMC,062430.358,A,3708.930,N,00832.499,W,002.1,012.2,101117,003.1,E*7B
$GPGGA,062431.358,3708.930,N,00832.499,W,1,04,15.0,10.0,M,1.0,M,,*79
$GPGLL,3708.930,N,00832.499,W,062432.358,A*22
$GPGSA,A,3,01,02,03,04,,,,,,,,,18.2,15.0,10.2*0A
$GPRMC,062434.358,A,3708.930,N,00832.499,W,002.2,014.1,101117,003.1,E*79
$GPGGA,062435.358,3708.930,N,00832.499,W,1,04,15.0,10.0,M,1.0,M,,*7D
$GPGLL,3708.930,N,00832.499,W,062436.358,A*26
$GPGSA,A,3,01,02,03,04,,,,,,,,,18.2,15.0,10.4*0C
$GPRMC,062438.358,A,3708.930,N,00832.499,W,002.0,018.4,101117,003.1,E*7E
$GPGGA,062439.358,3708.930,N,00832.499,W,1,04,15.0,10.0,M,1.0,M,,*71
$GPGLL,3708.930,N,00832.499,W,062440.358,A*27
$GPGSA,A,3,01,02,03,04,,,,,,,,,18.3,15.0,10.5*0C
$GPRMC,062442.358,A,3708.930,N,00832.499,W,002.2,012.6,101117,003.1,E*79
$GPGGA,062443.358,3708.930,N,00832.499,W,1,04,15.0,10.0,M,1.0,M,,*7C
$GPGLL,3708.930,N,00832.499,W,062444.358,A*23
$GPGSA,A,3,01,02,03,04,,,,,,,,,18.4,15.0,10.7*09
$GPRMC,062446.358,A,3708.930,N,00832.499,W,002.0,018.2,101117,003.1,E*71
$GPGGA,062447.358,3708.930,N,00832.499,W,1,04,15.0,10.0,M,1.0,M,,*78
$GPGLL,3708.930,N,00832.499,W,062448.358,A*2F
$GPGSA,A,3,01,02,03,04,,,,,,,,,18.6,15.0,10.9*05
$GPRMC,062450.358,A,3708.930,N,00832.499,W,002.0,012.4,101117,003.1,E*7A
$GPGGA,062451.358,3708.930,N,00832.499,W,1,04,15.0,10.0,M,1.0,M,,*7F
$GPGLL,3708.930,N,00832.499,W,062452.358,A*24
$GPGSA,A,3,01,02,03,04,,,,,,,,,18.7,15.0,11.2*0E
$GPRMC,062454.358,A,3708.930,N,00832.499,W,002.1,011.7,101117,003.1,E*7F
$GPGGA,062455.358,3708.930,N,00832.499,W,1,04,15.0,10.0,M,1.0,M,,*7B
$GPGLL,3708.930,N,00832.499,W,062456.358,A*20
$GPGSA,A,3,01,02,03,04,,,,,,,,,18.9,15.0,11.4*06
$GPRMC,062458.358,A,3708.930,N,00832.499,W,002.0,016.9,101117,003.1,E*7B
$GPGGA,062459.358,3708.930,N,00832.499,W,1,04,15.0,10.0,M,1.0,M,,*77
$GPGLL,3708.930,N,00832.499,W,062500.358,A*22
$GPGSA,A,3,01,02,03,04,,,,,,,,,19.0,15.0,11.7*0D
$GPRMC,062502.358,A,3708.930,N,00832.499,W,002.0,013.0,101117,003.1,E*79
$GPGGA,062503.358,3708.930,N,00832.499,W,1,04,15.0,10.0,M,1.0,M,,*79
$GPGLL,3708.930,N,00832.499,W,062504.358,A*26
$GPGSA,A,3,01,02,03,04,,,,,,,,,19.2,15.0,12.1*0A
$GPRMC,062506.358,A,3708.930,N,00832.499,W,002.1,011.2,101117,003.1,E*7C
$GPGGA,062507.358,3708.930,N,00832.499,W,1,04,15.0,10.0,M,1.0,M,,*7D
$GPGLL,3708.930,N,00832.499,W,062508.358,A*2A
$GPGSA,A,3,01,02,03,04,,,,,,,,,19.5,15.0,12.4*08
$GPRMC,062510.358,A,3708.930,N,00832.499,W,002.2,019.3,101117,003.1,E*71
$GPGGA,062511.358,3708.930,N,00832.499,W,1,04,15.0,10.0,M,1.0,M,,*7A
$GPGLL,3708.930,N,00832.499,W,062512.358,A*21
$GPGSA,A,3,01,02,03,04,,,,,,,,,19.7,15.0,12.7*09
$GPRMC,062514.358,A,3708.930,N,00832.499,W,002.2,015.5,101117,003.1,E*7F
$GPGGA,062515.358,3708.930,N,00832.499,W,1,04,15.0,10.0,M,1.0,M,,*7E
$GPGLL,3708.930,N,00832.499,W,062516.358,A*25
$GPGSA,A,3,01,02,03,04,,,,,,,,,19.9,15.0,13.1*00
$GPRMC,062518.358,A,3708.930,N,00832.499,W,002.0,018.7,101117,003.1,E*7E
$GPGGA,062519.358,3708.930,N,00832.499,W,1,04,15.0,10.0,M,1.0,M,,*72
$GPGLL,3708.930,N,00832.499,W,062520.358,A*20
$GPGSA,A,3,01,02,03,04,,,,,,,,,20.2,15.0,13.5*05
$GPRMC,062522.358,A,3708.930,N,00832.499,W,002.1,013.2,101117,003.1,E*78
$GPGGA,062523.358,3708.930,N,00832.499,W,1,04,15.0,10.0,M,1.0,M,,*7B
$GPGLL,3708.930,N,00832.499,W,062524.358,A*24
$GPGSA,A,3,01,02,03,04,,,,,,,,,20.4,15.0,13.9*0F
$GPRMC,062526.358,A,3708.930,N,00832.499,W,002.2,011.7,101117,003.1,E*78
$GPGGA,062527.358,3708.930,N,00832.499,W,1,04,15.0,10.0,M,1.0,M,,*7F
$GPGLL,3708.930,N,00832.499,W,062528.358,A*28
$GPGSA,A,3,01,02,03,04,,,,,,,,,20.7,15.0,14.2*00
$GPRMC,062530.358,A,3708.930,N,00832.499,W,002.0,010.4,101117,003.1,E*7F
$GPGGA,062531.358,3708.930,N,00832.499,W,1,04,15.0,10.0,M,1.0,M,,*78
$GPGLL,3708.930,N,00832.499,W,062532.358,A*23
$GPGSA,A,3,01,02,03,04,,,,,,,,,21.0,15.0,14.6*02
$GPRMC,062534.358,A,3708.930,N,00832.499,W,002.2,014.1,101117,003.1,E*78
$GPGGA,062535.358,3708.930,N,00832.499,W,1,04,15.0,10.0,M,1.0,M,,*7C
$GPGLL,3708.930,N,00832.499,W,062536.358,A*27
$GPGSA,A,3,01,02,03,04,,,,,,,,,21.2,15.0,15.0*07
$GPRMC,062538.358,A,3708.930,N,00832.499,W,002.1,015.5,101117,003.1,E*72
$GPGGA,062539.358,3708.930,N,00832.499,W,1,04,15.0,10.0,M,1.0,M,,*70
$GPGLL,3708.930,N,00832.499,W,062540.358,A*26
$GPGSA,A,3,01,02,03,04,,,,,,,,,21.5,15.0,15.4*04
$GPRMC,062542.358,A,3708.930,N,00832.499,W,002.0,013.8,101117,003.1,E*75
$GPGGA,062543.358,3708.930,N,00832.499,W,1,04,15.0,10.0,M,1.0,M,,*7D
$GPGLL,3708.930,N,00832.499,W,062544.358,A*22
$GPGSA,A,3,01,02,03,04,,,,,,,,,21.8,15.0,15.8*05
$GPRMC,062546.358,A,3708.930,N,00832.499,W,002.0,012.1,101117,003.1,E*79
$GPGGA,062547.358,3708.930,N,00832.499,W,1,04,15.0,10.0,M,1.0,M,,*79
$GPGLL,3708.930,N,00832.499,W,062548.358,A*2E
$GPGSA,A,3,01,02,03,04,,,,,,,,,22.1,15.0,16.2*06
$GPRMC,062550.358,A,3708.930,N,00832.499,W,002.1,019.6,101117,003.1,E*73
$GPGGA,062551.358,3708.930,N,00832.499,W,1,04,15.0,10.0,M,1.0,M,,*7E
$GPGLL,3708.930,N,00832.499,W,062552.358,A*25
$GPGSA,A,3,01,02,03,04,,,,,,,,,22.4,15.0,16.6*07
$GPRMC,062554.358,A,3708.930,N,00832.499,W,002.1,017.4,101117,003.1,E*7B
$GPGGA,062555.358,3708.930,N,00832.499,W,1,04,15.0,10.0,M,1.0,M,,*7A
$GPGLL,3708.930,N,00832.499,W,062556.358,A*21
$GPGSA,A,3,01,02,03,04,,,,,,,,,22.7,15.0,17.0*03
$GPRMC,062558.358,A,3708.930,N,00832.499,W,002.2,016.3,101117,003.1,E*72
$GPGGA,062559.358,3708.930,N,00832.499,W,1,04,15.0,10.0,M,1.0,M,,*76
$GPGLL,3708.930,N,00832.499,W,062600.358,A*21
$GPGSA,A,3,01,02,03,04,,,,,,,,,22.9,15.0,17.3*0E
$GPRMC,062602.358,A,3708.930,N,00832.499,W,002.1,019.5,101117,003.1,E*74
$GPGGA,062603.358,3708.930,N,00832.499,W,1,04,15.0,10.0,M,1.0,M,,*7A
$GPGLL,3708.930,N,00832.499,W,062604.358,A*25
$GPGSA,A,3,01,02,03,04,,,,,,,,,23.2,15.0,17.7*00
$GPRMC,062606.358,A,3708.930,N,00832.499,W,002.2,017.5,101117,003.1,E*7D
$GPGGA,062607.358,3708.930,N,00832.499,W,1,04,15.0,10.0,M,1.0,M,,*7E
$GPGLL,3708.930,N,00832.499,W,062608.358,A*29
$GPGSA,A,3,01,02,03,04,,,,,,,,,23.4,15.0,18.0*0E
$GPRMC,062610.358,A,3708.930,N,00832.499,W,002.1,014.6,101117,003.1,E*79
$GPGGA,062611.358,3708.930,N,00832.499,W,1,04,15.0,10.0,M,1.0,M,,*79
$GPGLL,3708.930,N,00832.499,W,062612.358,A*22
$GPGSA,A,3,01,02,03,04,,,,,,,,,23.7,15.0,18.3*0E
$GPRMC,062614.358,A,3708.930,N,00832.499,W,002.0,017.6,101117,003.1,E*7F
$GPGGA,062615.358,3708.930,N,00832.499,W,1,04,15.0,10.0,M,1.0,M,,*7D
$GPGLL,3708.930,N,00832.499,W,062616.358,A*26
$GPGSA,A,3,01,02,03,04,,,,,,,,,23.9,15.0,18.6*05
$GPRMC,062618.358,A,3708.930,N,00832.499,W,002.2,019.0,101117,003.1,E*79
$GPGGA,062619.358,3708.930,N,00832.499,W,1,04,15.0,10.0,M,1.0,M,,*71
$GPGLL,3708.930,N,00832.499,W,062620.358,A*23
$GPGSA,A,3,01,02,03,04,,,,,,,,,24.1,15.0,18.9*05
$GPRMC,062622.358,A,3708.930,N,00832.499,W,002.1,013.6,101117,003.1,E*7F
$GPGGA,062623.358,3708.930,N,00832.499,W,1,04,15.0,10.0,M,1.0,M,,*78
$GPGLL,3708.930,N,00832.499,W,062624.358,A*27
$GPGSA,A,3,01,02,03,04,,,,,,,,,24.3,15.0,19.1*0E
$GPRMC,062626.358,A,3708.930,N,00832.499,W,002.1,015.8,101117,003.1,E*73
$GPGGA,062627.358,3708.930,N,00832.499,W,1,04,15.0,10.0,M,1.0,M,,*7C
$GPGLL,3708.930,N,00832.499,W,062628.358,A*2B
$GPGSA,A,3,01,02,03,04,,,,,,,,,24.5,15.0,19.3*0A
$GPRMC,062630.358,A,3708.930,N,00832.499,W,002.2,013.7,101117,003.1,E*7E
$GPGGA,062631.358,3708.930,N,00832.499,W,1,04,15.0,10.0,M,1.0,M,,*7B
$GPGLL,3708.930,N,00832.499,W,062632.358,A*20
$GPGSA,A,3,01,02,03,04,,,,,,,,,24.6,15.0,19.5*0F
$GPRMC,062634.358,A,3708.930,N,00832.499,W,002.2,011.2,101117,003.1,E*7D
$GPGGA,062635.358,3708.930,N,00832.499,W,1,04,15.0,10.0,M,1.0,M,,*7F
$GPGLL,3708.930,N,00832.499,W,062636.358,A*24
$GPGSA,A,3,01,02,03,04,,,,,,,,,24.7,15.0,19.7*0C
$GPRMC,062638.358,A,3708.930,N,00832.499,W,002.1,019.4,101117,003.1,E*7C
$GPGGA,062639.358,3708.930,N,00832.499,W,1,04,15.0,10.0,M,1.0,M,,*73
$GPGLL,3708.930,N,00832.499,W,062640.358,A*25
$GPGSA,A,3,01,02,03,04,,,,,,,,,24.8,15.0,19.8*0C
$GPRMC,062642.358,A,3708.930,N,00832.499,W,002.1,013.0,101117,003.1,E*7F
$GPGGA,062643.358,3708.930,N,00832.499,W,1,04,15.0,10.0,M,1.0,M,,*7E
$GPGLL,3708.930,N,00832.499,W,062644.358,A*21
$GPGSA,A,3,01,02,03,04,,,,,,,,,24.9,15.0,19.9*0C
$GPRMC,062646.358,A,3708.930,N,00832.499,W,002.0,015.6,101117,003.1,E*7A
$GPGGA,062647.358,3708.930,N,00832.499,W,1,04,15.0,10.0,M,1.0,M,,*7A
$GPGLL,3708.930,N,00832.499,W,062648.358,A*2D
$GPGSA,A,3,01,02,03,04,,,,,,,,,25.0,15.0,20.0*07
$GPRMC,062650.358,A,3708.930,N,00832.499,W,002.0,017.0,101117,003.1,E*79
$GPGGA,062651.358,3708.930,N,00832.499,W,1,04,15.0,10.0,M,1.0,M,,*7D
$GPGLL,3708.930,N,00832.499,W,062652.358,A*26
$GPGSA,A,3,01,02,03,04,,,,,,,,,25.0,15.0,20.0*07
$GPRMC,062654.358,A,3708.930,N,00832.499,W,002.1,014.1,101117,003.1,E*7E
$GPGGA,062655.358,3708.930,N,00832.499,W,1,04,15.0,10.0,M,1.0,M,,*79
$GPGLL,3708.930,N,00832.499,W,062656.358,A*22
$GPGSA,A,3,01,02,03,04,,,,,,,,,25.0,15.0,20.0*07
$GPRMC,062658.358,A,3708.930,N,00832.499,W,002.2,015.0,101117,003.1,E*71
$GPGGA,062659.358,3708.930,N,00832.499,W,1,04,15.0,10.0,M,1.0,M,,*75
$GPGLL,3708.930,N,00832.499,W,062700.358,A*20
$GPGSA,A,3,01,02,03,04,,,,,,,,,25.0,15.0,20.0*07
$GPRMC,062702.358,A,3708.930,N,00832.499,W,002.2,018.4,101117,003.1,E*76
$GPGGA,062703.358,3708.930,N,00832.499,W,1,04,15.0,10.0,M,1.0,M,,*7B
$GPGLL,3708.930,N,00832.499,W,062704.358,A*24
$GPGSA,A,3,01,02,03,04,,,,,,,,,24.9,15.0,19.9*0C
$GPRMC,062706.358,A,3708.930,N,00832.499,W,002.1,017.4,101117,003.1,E*7E
$GPGGA,062707.358,3708.930,N,00832.499,W,1,04,15.0,10.0,M,1.0,M,,*7F
$GPGLL,3708.930,N,00832.499,W,062708.358,A*28
$GPGSA,A,3,01,02,03,04,,,,,,,,,24.8,15.0,19.8*0C
$GPRMC,062710.358,A,3708.930,N,00832.499,W,002.1,014.0,101117,003.1,E*7E
$GPGGA,062711.358,3708.930,N,00832.499,W,1,04,15.0,10.0,M,1.0,M,,*78
$GPGLL,3708.930,N,00832.499,W,062712.358,A*23
$GPGSA,A,3,01,02,03,04,,,,,,,,,24.7,15.0,19.7*0C
$GPRMC,062714.358,A,3708.930,N,00832.499,W,002.1,012.8,101117,003.1,E*74
$GPGGA,062715.358,3708.930,N,00832.499,W,1,04,15.0,10.0,M,1.0,M,,*7C
$GPGLL,3708.930,N,00832.499,W,062716.358,A*27
$GPGSA,A,3,01,02,03,04,,,,,,,,,24.6,15.0,19.5*0F
$GPRMC,062718.358,A,3708.930,N,00832.499,W,002.1,016.2,101117,003.1,E*76
$GPGGA,062719.358,3708.930,N,00832.499,W,1,04,15.0,10.0,M,1.0,M,,*70
$GPGLL,3708.930,N,00832.499,W,062720.358,A*22
$GPGSA,A,3,01,02,03,04,,,,,,,,,24.5,15.0,19.3*0A
$GPRMC,062722.358,A,3708.930,N,00832.499,W,002.1,014.3,101117,003.1,E*7C
$GPGGA,062723.358,3708.930,N,00832.499,W,1,04,15.0,10.0,M,1.0,M,,*79
$GPGLL,3708.930,N,00832.499,W,062724.358,A*26
$GPGSA,A,3,01,02,03,04,,,,,,,,,24.3,15.0,19.1*0E
$GPRMC,062726.358,A,3708.930,N,00832.499,W,002.0,016.6,101117,003.1,E*7E
$GPGGA,062727.358,3708.930,N,00832.499,W,1,04,15.0,10.0,M,1.0,M,,*7D
$GPGLL,3708.930,N,00832.499,W,062728.358,A*2A
$GPGSA,A,3,01,02,03,04,,,,,,,,,24.1,15.0,18.9*05
$GPRMC,062730.358,A,3708.930,N,00832.499,W,002.1,019.4,101117,003.1,E*75
$GPGGA,062731.358,3708.930,N,00832.499,W,1,04,15.0,10.0,M,1.0,M,,*7A
$GPGLL,3708.930,N,00832.499,W,062732.358,A*21
$GPGSA,A,3,01,02,03,04,,,,,,,,,23.9,15.0,18.6*05
$GPRMC,062734.358,A,3708.930,N,00832.499,W,002.0,016.4,101117,003.1,E*7F
$GPGGA,062735.358,3708.930,N,00832.499,W,1,04,15.0,10.0,M,1.0,M,,*7E
$GPGLL,3708.930,N,00832.499,W,062736.358,A*25
$GPGSA,A,3,01,02,03,04,,,,,,,,,23.7,15.0,18.3*0E
$GPRMC,062738.358,A,3708.930,N,00832.499,W,002.1,019.3,101117,003.1,E*7A
$GPGGA,062739.358,3708.930,N,00832.499,W,1,04,15.0,10.0,M,1.0,M,,*72
$GPGLL,3708.930,N,00832.499,W,062740.358,A*24
$GPGSA,A,3,01,02,03,04,,,,,,,,,23.5,15.0,18.0*0F
$GPRMC,062742.358,A,3708.930,N,00832.499,W,002.0,016.5,101117,003.1,E*7F
$GPGGA,062743.358,3708.930,N,00832.499,W,1,04,15.0,10.0,M,1.0,M,,*7F
$GPGLL,3708.930,N,00832.499,W,062744.358,A*20
$GPGSA,A,3,01,02,03,04,,,,,,,,,23.2,15.0,17.7*00
$GPRMC,062746.358,A,3708.930,N,00832.499,W,002.1,016.8,101117,003.1,E*77
$GPGGA,062747.358,3708.930,N,00832.499,W,1,04,15.0,10.0,M,1.0,M,,*7B
$GPGLL,3708.930,N,00832.499,W,062748.358,A*2C
$GPGSA,A,3,01,02,03,04,,,,,,,,,22.9,15.0,17.4*09
$GPRMC,062750.358,A,3708.930,N,00832.499,W,002.2,011.4,101117,003.1,E*78
$GPGGA,062751.358,3708.930,N,00832.499,W,1,04,15.0,10.0,M,1.0,M,,*7C
$GPGLL,3708.930,N,00832.499,W,062752.358,A*27
$GPGSA,A,3,01,02,03,04,,,,,,,,,22.7,15.0,17.0*03
$GPRMC,062754.358,A,3708.930,N,00832.499,W,002.0,013.1,101117,003.1,E*79
$GPGGA,062755.358,3708.930,N,00832.499,W,1,04,15.0,10.0,M,1.0,M,,*78
$GPGLL,3708.930,N,00832.499,W,062756.358,A*23
$GPGSA,A,3,01,02,03,04,,,,,,,,,22.4,15.0,16.6*07
$GPRMC,062758.358,A,3708.930,N,00832.499,W,002.1,013.6,101117,003.1,E*73
$GPGGA,062759.358,3708.930,N,00832.499,W,1,04,15.0,10.0,M,1.0,M,,*74
$GPGLL,3708.930,N,00832.499,W,062800.358,A*2F
$GPGSA,A,3,01,02,03,04,,,,,,,,,22.1,15.0,16.2*06
$GPRMC,062802.358,A,3708.930,N,00832.499,W,002.0,017.4,101117,003.1,E*74
$GPGGA,062803.358,3708.930,N,00832.499,W,1,04,15.0,10.0,M,1.0,M,,*74
$GPGLL,3708.930,N,00832.499,W,062804.358,A*2B
$GPGSA,A,3,01,02,03,04,,,,,,,,,21.8,15.0,15.9*04
$GPRMC,062806.358,A,3708.930,N,00832.499,W,002.1,019.1,101117,003.1,E*7A
$GPGGA,062807.358,3708.930,N,00832.499,W,1,04,15.0,10.0,M,1.0,M,,*70
$GPGLL,3708.930,N,00832.499,W,062808.358,A*27
$GPGSA,A,3,01,02,03,04,,,,,,,,,21.5,15.0,15.5*05
$GPRMC,062810.358,A,3708.930,N,00832.499,W,002.0,018.4,101117,003.1,E*78
$GPGGA,062811.358,3708.930,N,00832.499,W,1,04,15.0,10.0,M,1.0,M,,*77
$GPGLL,3708.930,N,00832.499,W,062812.358,A*2C
$GPGSA,A,3,01,02,03,04,,,,,,,,,21.3,15.0,15.1*07
$GPRMC,062814.358,A,3708.930,N,00832.499,W,002.1,015.7,101117,003.1,E*73
$GPGGA,062815.358,3708.930,N,00832.499,W,1,04,15.0,10.0,M,1.0,M,,*73
$GPGLL,3708.930,N,00832.499,W,062816.358,A*28
$GPGSA,A,3,01,02,03,04,,,,,,,,,21.0,15.0,14.7*03
$GPRMC,062818.358,A,3708.930,N,00832.499,W,002.0,018.6,101117,003.1,E*72
$GPGGA,062819.358,3708.930,N,00832.499,W,1,04,15.0,10.0,M,1.0,M,,*7F
$GPGLL,3708.930,N,00832.499,W,062820.358,A*2D
$GPGSA,A,3,01,02,03,04,,,,,,,,,20.7,15.0,14.3*01
$GPRMC,062822.358,A,3708.930,N,00832.499,W,002.0,016.0,101117,003.1,E*73
$GPGGA,062823.358,3708.930,N,00832.499,W,1,04,15.0,10.0,M,1.0,M,,*76
$GPGLL,3708.930,N,00832.499,W,062824.358,A*29
$GPGSA,A,3,01,02,03,04,,,,,,,,,20.4,15.0,13.9*0F
$GPRMC,062826.358,A,3708.930,N,00832.499,W,002.0,016.5,101117,003.1,E*72
$GPGGA,062827.358,3708.930,N,00832.499,W,1,04,15.0,10.0,M,1.0,M,,*72
$GPGLL,3708.930,N,00832.499,W,062828.358,A*25
$GPGSA,A,3,01,02,03,04,,,,,,,,,20.2,15.0,13.5*05
$GPRMC,062830.358,A,3708.930,N,00832.499,W,002.1,017.8,101117,003.1,E*78
$GPGGA,062831.358,3708.930,N,00832.499,W,1,04,15.0,10.0,M,1.0,M,,*75
$GPGLL,3708.930,N,00832.499,W,062832.358,A*2E
$GPGSA,A,3,01,02,03,04,,,,,,,,,19.9,15.0,13.1*00
$GPRMC,062834.358,A,3708.930,N,00832.499,W,002.1,016.8,101117,003.1,E*7D
$GPGGA,062835.358,3708.930,N,00832.499,W,1,04,15.0,10.0,M,1.0,M,,*71
$GPGLL,3708.930,N,00832.499,W,062836.358,A*2A
$GPGSA,A,3,01,02,03,04,,,,,,,,,19.7,15.0,12.7*09
$GPRMC,062838.358,A,3708.930,N,00832.499,W,002.1,018.2,101117,003.1,E*75
$GPGGA,062839.358,3708.930,N,00832.499,W,1,04,15.0,10.0,M,1.0,M,,*7D
$GPGLL,3708.930,N,00832.499,W,062840.358,A*2B
$GPGSA,A,3,01,02,03,04,,,,,,,,,19.5,15.0,12.4*08
$GPRMC,062842.358,A,3708.930,N,00832.499,W,002.1,017.6,101117,003.1,E*73
$GPGGA,062843.358,3708.930,N,00832.499,W,1,04,15.0,10.0,M,1.0,M,,*70
$GPGLL,3708.930,N,00832.499,W,062844.358,A*2F
$GPGSA,A,3,01,02,03,04,,,,,,,,,19.2,15.0,12.1*0A
$GPRMC,062846.358,A,3708.930,N,00832.499,W,002.0,019.6,101117,003.1,E*78
$GPGGA,062847.358,3708.930,N,00832.499,W,1,04,15.0,10.0,M,1.0,M,,*74
$GPGLL,3708.930,N,00832.499,W,062848.358,A*23
$GPGSA,A,3,01,02,03,04,,,,,,,,,19.1,15.0,11.7*0C
$GPRMC,062850.358,A,3708.930,N,00832.499,W,002.1,015.2,101117,003.1,E*76
$GPGGA,062851.358,3708.930,N,00832.499,W,1,04,15.0,10.0,M,1.0,M,,*73
$GPGLL,3708.930,N,00832.499,W,062852.358,A*28
$GPGSA,A,3,01,02,03,04,,,,,,,,,18.9,15.0,11.5*07
$GPRMC,062854.358,A,3708.930,N,00832.499,W,002.1,011.9,101117,003.1,E*7D
$GPGGA,062855.358,3708.930,N,00832.499,W,1,04,15.0,10.0,M,1.0,M,,*77
$GPGLL,3708.930,N,00832.499,W,062856.358,A*2C
$GPGSA,A,3,01,02,03,04,,,,,,,,,18.7,15.0,11.2*0E
$GPRMC,062858.358,A,3708.930,N,00832.499,W,002.2,018.3,101117,003.1,E*71
$GPGGA,062859.358,3708.930,N,00832.499,W,1,04,15.0,10.0,M,1.0,M,,*7B
$GPGLL,3708.930,N,00832.499,W,062900.358,A*2E
$GPGSA,A,3,01,02,03,04,,,,,,,,,18.6,15.0,10.9*05
$GPRMC,062902.358,A,3708.930,N,00832.499,W,002.2,014.8,101117,003.1,E*78
$GPGGA,062903.358,3708.930,N,00832.499,W,1,04,15.0,10.0,M,1.0,M,,*75
$GPGLL,3708.930,N,00832.499,W,062904.358,A*2A
$GPGSA,A,3,01,02,03,04,,,,,,,,,18.4,15.0,10.7*09
$GPRMC,062906.358,A,3708.930,N,00832.499,W,002.1,018.4,101117,003.1,E*7F
$GPGGA,062907.358,3708.930,N,00832.499,W,1,04,15.0,10.0,M,1.0,M,,*71
$GPGLL,3708.930,N,00832.499,W,062908.358,A*26
$GPGSA,A,3,01,02,03,04,,,,,,,,,18.3,15.0,10.5*0C
$GPRMC,062910.358,A,3708.930,N,00832.499,W,002.2,010.3,101117,003.1,E*74
$GPGGA,062911.358,3708.930,N,00832.499,W,1,04,15.0,10.0,M,1.0,M,,*76
$GPGLL,3708.930,N,00832.499,W,062912.358,A*2D
$GPGSA,A,3,01,02,03,04,,,,,,,,,18.2,15.0,10.4*0C
$GPRMC,062914.358,A,3708.930,N,00832.499,W,002.2,015.1,101117,003.1,E*77
$GPGGA,062915.358,3708.930,N,00832.499,W,1,04,15.0,10.0,M,1.0,M,,*72
$GPGLL,3708.930,N,00832.499,W,062916.358,A*29
$GPGSA,A,3,01,02,03,04,,,,,,,,,18.2,15.0,10.2*0A
$GPRMC,062918.358,A,3708.930,N,00832.499,W,002.0,020.0,101117,003.1,E*7E
$GPGGA,062919.358,3708.930,N,00832.499,W,1,04,15.0,10.0,M,1.0,M,,*7E
$GPGLL,3708.930,N,00832.499,W,062920.358,A*2C
$GPGSA,A,3,01,02,03,04,,,,,,,,,18.1,15.0,10.1*0A
$GPRMC,062922.358,A,3708.930,N,00832.499,W,002.1,017.0,101117,003.1,E*72
$GPGGA,062923.358,3708.930,N,00832.499,W,1,04,15.0,10.0,M,1.0,M,,*77
$GPGLL,3708.930,N,00832.499,W,062924.358,A*28
$GPGSA,A,3,01,02,03,04,,,,,,,,,18.1,15.0,10.1*0A
$GPRMC,062926.358,A,3708.930,N,00832.499,W,002.0,011.7,101117,003.1,E*76
$GPGGA,062927.358,3708.930,N,00832.499,W,1,04,15.0,10.0,M,1.0,M,,*73
$GPGLL,3708.930,N,00832.499,W,062928.358,A*24
$GPGSA,A,3,01,02,03,04,,,,,,,,,18.0,15.0,10.0*0A
$GPRMC,062930.358,A,3708.930,N,00832.499,W,002.0,017.5,101117,003.1,E*75
$GPGGA,062931.358,3708.930,N,00832.499,W,1,04,15.0,10.0,M,1.0,M,,*74
$GPGLL,3708.930,N,00832.499,W,062932.358,A*2F
$GPGSA,A,3,01,02,03,04,,,,,,,,,18.0,15.0,10.0*0A
$GPRMC,062934.358,A,3708.930,N,00832.499,W,002.0,014.2,101117,003.1,E*75
$GPGGA,062935.358,3708.930,N,00832.499,W,1,04,15.0,10.0,M,1.0,M,,*70
$GPGLL,3708.930,N,00832.499,W,062936.358,A*2B
$GPGSA,A,3,01,02,03,04,,,,,,,,,18.0,15.0,10.0*0A
$GPRMC,062938.358,A,3708.930,N,00832.499,W,002.1,016.9,101117,003.1,E*71
$GPGGA,062939.358,3708.930,N,00832.499,W,1,04,15.0,10.0,M,1.0,M,,*7C
$GPGLL,3708.930,N,00832.499,W,062940.358,A*2A
$GPGSA,A,3,01,02,03,04,,,,,,,,,18.1,15.0,10.1*0A
$GPRMC,062942.358,A,3708.930,N,00832.499,W,002.0,017.3,101117,003.1,E*76
$GPGGA,062943.358,3708.930,N,00832.499,W,1,04,15.0,10.0,M,1.0,M,,*71
$GPGLL,3708.930,N,00832.499,W,062944.358,A*2E
$GPGSA,A,3,01,02,03,04,,,,,,,,,18.1,15.0,10.2*09
$GPRMC,062946.358,A,3708.930,N,00832.499,W,002.1,013.1,101117,003.1,E*75
$GPGGA,062947.358,3708.930,N,00832.499,W,1,04,15.0,10.0,M,1.0,M,,*75
$GPGLL,3708.930,N,00832.499,W,062948.358,A*22
$GPGSA,A,3,01,02,03,04,,,,,,,,,18.2,15.0,10.3*0B
$GPRMC,062950.358,A,3708.930,N,00832.499,W,002.0,016.5,101117,003.1,E*72
$GPGGA,062951.358,3708.930,N,00832.499,W,1,04,15.0,10.0,M,1.0,M,,*72
$GPGLL,3708.930,N,00832.499,W,062952.358,A*29
$GPGSA,A,3,01,02,03,04,,,,,,,,,18.3,15.0,10.4*0D
$GPRMC,062954.358,A,3708.930,N,00832.499,W,002.0,010.8,101117,003.1,E*7D
$GPGGA,062955.358,3708.930,N,00832.499,W,1,04,15.0,10.0,M,1.0,M,,*76
$GPGLL,3708.930,N,00832.499,W,062956.358,A*2D
$GPGSA,A,3,01,02,03,04,,,,,,,,,18.4,15.0,10.6*08
$GPRMC,062958.358,A,3708.930,N,00832.499,W,002.1,012.8,101117,003.1,E*72
$GPGGA,062959.358,3708.930,N,00832.499,W,1,04,15.0,10.0,M,1.0,M,,*7A
$GPGLL,3708.930,N,00832.499,W,063000.358,A*26
$GPGSA,A,3,01,02,03,04,,,,,,,,,18.5,15.0,10.8*07
$GPRMC,063002.358,A,3708.930,N,00832.499,W,002.1,015.9,101117,003.1,E*73
$GPGGA,063003.358,3708.930,N,00832.499,W,1,04,15.0,10.0,M,1.0,M,,*7D
$GPGLL,3708.930,N,00832.499,W,063004.358,A*22
$GPGSA,A,3,01,02,03,04,,,,,,,,,18.6,15.0,11.0*0D
$GPRMC,063006.358,A,3708.930,N,00832.499,W,002.2,013.8,101117,003.1,E*73
$GPGGA,063007.358,3708.930,N,00832.499,W,1,04,15.0,10.0,M,1.0,M,,*79
$GPGLL,3708.930,N,00832.499,W,063008.358,A*2E
$GPGSA,A,3,01,02,03,04,,,,,,,,,18.8,15.0,11.3*00
$GPRMC,063010.358,A,3708.930,N,00832.499,W,002.0,018.0,101117,003.1,E*75
$GPGGA,063011.358,3708.930,N,00832.499,W,1,04,15.0,10.0,M,1.0,M,,*7E
$GPGLL,3708.930,N,00832.499,W,063012.358,A*25
$GPGSA,A,3,01,02,03,04,,,,,,,,,18.9,15.0,11.6*04
$GPRMC,063014.358,A,3708.930,N,00832.499,W,002.1,011.9,101117,003.1,E*70
$GPGGA,063015.358,3708.930,N,00832.499,W,1,04,15.0,10.0,M,1.0,M,,*7A
$GPGLL,3708.930,N,00832.499,W,063016.358,A*21
$GPGSA,A,3,01,02,03,04,,,,,,,,,19.1,15.0,11.9*02
$GPRMC,063018.358,A,3708.930,N,00832.499,W,002.1,016.8,101117,003.1,E*7A
$GPGGA,063019.358,3708.930,N,00832.499,W,1,04,15.0,10.0,M,1.0,M,,*76
$GPGLL,3708.930,N,00832.499,W,063020.358,A*24
$GPGSA,A,3,01,02,03,04,,,,,,,,,19.3,15.0,12.2*08
$GPRMC,063022.358,A,3708.930,N,00832.499,W,002.0,013.6,101117,003.1,E*79
$GPGGA,063023.358,3708.930,N,00832.499,W,1,04,15.0,10.0,M,1.0,M,,*7F
$GPGLL,3708.930,N,00832.499,W,063024.358,A*20
$GPGSA,A,3,01,02,03,04,,,,,,,,,19.6,15.0,12.5*0A
$GPRMC,063026.358,A,3708.930,N,00832.499,W,002.0,012.5,101117,003.1,E*7F
$GPGGA,063027.358,3708.930,N,00832.499,W,1,04,15.0,10.0,M,1.0,M,,*7B
$GPGLL,3708.930,N,00832.499,W,063028.358,A*2C
$GPGSA,A,3,01,02,03,04,,,,,,,,,19.8,15.0,12.9*08
$GPRMC,063030.358,A,3708.930,N,00832.499,W,002.0,013.5,101117,003.1,E*79
$GPGGA,063031.358,3708.930,N,00832.499,W,1,04,15.0,10.0,M,1.0,M,,*7C
$GPGLL,3708.930,N,00832.499,W,063032.358,A*27
$GPGSA,A,3,01,02,03,04,,,,,,,,,20.0,15.0,13.3*01
$GPRMC,063034.358,A,3708.930,N,00832.499,W,002.2,016.7,101117,003.1,E*78
$GPGGA,063035.358,3708.930,N,00832.499,W,1,04,15.0,10.0,M,1.0,M,,*78
$GPGLL,3708.930,N,00832.499,W,063036.358,A*23
$GPGSA,A,3,01,02,03,04,,,,,,,,,20.3,15.0,13.6*07
$GPRMC,063038.358,A,3708.930,N,00832.499,W,002.0,016.1,101117,003.1,E*70
$GPGGA,063039.358,3708.930,N,00832.499,W,1,04,15.0,10.0,M,1.0,M,,*74
$GPGLL,3708.930,N,00832.499,W,063040.358,A*22
$GPGSA,A,3,01,02,03,04,,,,,,,,,20.5,15.0,14.0*00
$GPRMC,063042.358,A,3708.930,N,00832.499,W,002.1,014.6,101117,003.1,E*79
$GPGGA,063043.358,3708.930,N,00832.499,W,1,04,15.0,10.0,M,1.0,M,,*79
$GPGLL,3708.930,N,00832.499,W,063044.358,A*26
$GPGSA,A,3,01,02,03,04,,,,,,,,,20.8,15.0,14.4*09
$GPRMC,063046.358,A,3708.930,N,00832.499,W,002.0,017.5,101117,003.1,E*7C
$GPGGA,063047.358,3708.930,N,00832.499,W,1,04,15.0,10.0,M,1.0,M,,*7D
$GPGLL,3708.930,N,00832.499,W,063048.358,A*2A
$GPGSA,A,3,01,02,03,04,,,,,,,,,21.1,15.0,14.8*0D
$GPRMC,063050.358,A,3708.930,N,00832.499,W,002.0,019.0,101117,003.1,E*70
$GPGGA,063051.358,3708.930,N,00832.499,W,1,04,15.0,10.0,M,1.0,M,,*7A
$GPGLL,3708.930,N,00832.499,W,063052.358,A*21
$GPGSA,A,3,01,02,03,04,,,,,,,,,21.4,15.0,15.2*03
$GPRMC,063054.358,A,3708.930,N,00832.499,W,002.1,017.2,101117,003.1,E*79
$GPGGA,063055.358,3708.930,N,00832.499,W,1,04,15.0,10.0,M,1.0,M,,*7E
$GPGLL,3708.930,N,00832.499,W,063056.358,A*25
$GPGSA,A,3,01,02,03,04,,,,,,,,,21.7,15.0,15.6*04
